[
  { "code": "IAD1", "name": "Ashburn",      "region": "amer", "latitude": 39.0438,  "longitude": -77.4874,  "role": "compute", "facility": "Equinix DC2",          "address": "21715 Filigree Court, Ashburn, VA 20147, USA" },
  { "code": "DFW1", "name": "Dallas",       "region": "amer", "latitude": 32.7767,  "longitude": -96.7970,  "role": "compute", "facility": "Equinix DA1",          "address": "1950 N Stemmons Fwy, Dallas, TX 75207, USA" },
  { "code": "SJC1", "name": "San Jose",     "region": "amer", "latitude": 37.3382,  "longitude": -121.8863, "role": "compute", "facility": "Equinix SV1",          "address": "11 Great Oaks Blvd, San Jose, CA 95119, USA" },
  { "code": "LAX1", "name": "Los Angeles",  "region": "amer", "latitude": 34.0522,  "longitude": -118.2437, "role": "compute", "facility": "One Wilshire",         "address": "624 S Grand Ave, Los Angeles, CA 90017, USA" },
  { "code": "ORD1", "name": "Chicago",      "region": "amer", "latitude": 41.8781,  "longitude": -87.6298,  "role": "compute", "facility": "Digital Realty ORD10", "address": "350 E Cermak Rd, Chicago, IL 60616, USA" },
  { "code": "NYC1", "name": "New York",     "region": "amer", "latitude": 40.7128,  "longitude": -74.0060,  "role": "compute", "facility": "60 Hudson Street",     "address": "60 Hudson St, New York, NY 10013, USA" },
  { "code": "MIA1", "name": "Miami",        "region": "amer", "latitude": 25.7617,  "longitude": -80.1918,  "role": "pop",     "facility": "NAP of the Americas",  "address": "50 NE 9th St, Miami, FL 33132, USA", "server_racks": 6 },
  { "code": "GRU1", "name": "Sao Paulo",    "region": "amer", "latitude": -23.5505, "longitude": -46.6333,  "role": "pop",     "facility": "Equinix SP2",          "address": "Av. Ceci 1900, Tambore, Barueri, SP 06460-120, Brazil", "server_racks": 6 },
  { "code": "AMS1", "name": "Amsterdam",    "region": "emea", "latitude": 52.3676,  "longitude": 4.9041,    "role": "compute", "facility": "Equinix AM3",          "address": "Science Park 610, 1098 XH Amsterdam, Netherlands" },
  { "code": "FRA1", "name": "Frankfurt",    "region": "emea", "latitude": 50.1109,  "longitude": 8.6821,    "role": "compute", "facility": "Equinix FR5",          "address": "Kleyerstrasse 90, 60326 Frankfurt am Main, Germany" },
  { "code": "LHR1", "name": "London",       "region": "emea", "latitude": 51.5074,  "longitude": -0.1278,   "role": "compute", "facility": "Telehouse North",      "address": "Coriander Ave, London E14 2AA, United Kingdom" },
  { "code": "PAR1", "name": "Paris",        "region": "emea", "latitude": 48.8566,  "longitude": 2.3522,    "role": "compute", "facility": "Telehouse Voltaire",   "address": "137 Bd Voltaire, 75011 Paris, France" },
  { "code": "DXB1", "name": "Dubai",        "region": "emea", "latitude": 25.2048,  "longitude": 55.2708,   "role": "pop",     "facility": "Equinix DX1",          "address": "Dubai Internet City, Dubai, UAE", "server_racks": 6 },
  { "code": "JNB1", "name": "Johannesburg", "region": "emea", "latitude": -26.2041, "longitude": 28.0473,   "role": "pop",     "facility": "Teraco JB1",           "address": "Brewery St, Isando, Kempton Park 1600, South Africa", "server_racks": 6 },
  { "code": "SIN1", "name": "Singapore",    "region": "apac", "latitude": 1.3521,   "longitude": 103.8198,  "role": "compute", "facility": "Equinix SG1",          "address": "20 Ayer Rajah Crescent, Singapore 139964" },
  { "code": "HKG1", "name": "Hong Kong",    "region": "apac", "latitude": 22.3193,  "longitude": 114.1694,  "role": "compute", "facility": "MEGA-i",               "address": "399 Chai Wan Rd, Chai Wan, Hong Kong" },
  { "code": "NRT1", "name": "Tokyo",        "region": "apac", "latitude": 35.6762,  "longitude": 139.6503,  "role": "compute", "facility": "@Tokyo CC1",           "address": "2-2-23 Higashi-Shinagawa, Shinagawa-ku, Tokyo, Japan" },
  { "code": "ICN1", "name": "Seoul",        "region": "apac", "latitude": 37.5665,  "longitude": 126.9780,  "role": "compute", "facility": "KINX Gasan IDC",       "address": "98 Gasan digital 2-ro, Geumcheon-gu, Seoul, South Korea" },
  { "code": "SYD1", "name": "Sydney",       "region": "apac", "latitude": -33.8688, "longitude": 151.2093,  "role": "compute", "facility": "Equinix SY3",          "address": "47 Bourke Rd, Alexandria NSW 2015, Australia" },
  { "code": "MEL1", "name": "Melbourne",    "region": "apac", "latitude": -37.8136, "longitude": 144.9631,  "role": "pop",     "facility": "NextDC M1",            "address": "826 Lorimer St, Port Melbourne VIC 3207, Australia", "server_racks": 6 }
]
