[
  { "code": "IAD1", "name": "Ashburn",      "region": "amer", "latitude": 39.0438,  "longitude": -77.4874 },
  { "code": "DFW1", "name": "Dallas",       "region": "amer", "latitude": 32.7767,  "longitude": -96.7970 },
  { "code": "SJC1", "name": "San Jose",     "region": "amer", "latitude": 37.3382,  "longitude": -121.8863 },
  { "code": "LAX1", "name": "Los Angeles",  "region": "amer", "latitude": 34.0522,  "longitude": -118.2437 },
  { "code": "ORD1", "name": "Chicago",      "region": "amer", "latitude": 41.8781,  "longitude": -87.6298 },
  { "code": "NYC1", "name": "New York",     "region": "amer", "latitude": 40.7128,  "longitude": -74.0060 },
  { "code": "MIA1", "name": "Miami",        "region": "amer", "latitude": 25.7617,  "longitude": -80.1918 },
  { "code": "GRU1", "name": "Sao Paulo",    "region": "amer", "latitude": -23.5505, "longitude": -46.6333 },
  { "code": "AMS1", "name": "Amsterdam",    "region": "emea", "latitude": 52.3676,  "longitude": 4.9041 },
  { "code": "FRA1", "name": "Frankfurt",    "region": "emea", "latitude": 50.1109,  "longitude": 8.6821 },
  { "code": "LHR1", "name": "London",       "region": "emea", "latitude": 51.5074,  "longitude": -0.1278 },
  { "code": "PAR1", "name": "Paris",        "region": "emea", "latitude": 48.8566,  "longitude": 2.3522 },
  { "code": "DXB1", "name": "Dubai",        "region": "emea", "latitude": 25.2048,  "longitude": 55.2708 },
  { "code": "JNB1", "name": "Johannesburg", "region": "emea", "latitude": -26.2041, "longitude": 28.0473 },
  { "code": "SIN1", "name": "Singapore",    "region": "apac", "latitude": 1.3521,   "longitude": 103.8198 },
  { "code": "HKG1", "name": "Hong Kong",    "region": "apac", "latitude": 22.3193,  "longitude": 114.1694 },
  { "code": "NRT1", "name": "Tokyo",        "region": "apac", "latitude": 35.6762,  "longitude": 139.6503 },
  { "code": "ICN1", "name": "Seoul",        "region": "apac", "latitude": 37.5665,  "longitude": 126.9780 },
  { "code": "SYD1", "name": "Sydney",       "region": "apac", "latitude": -33.8688, "longitude": 151.2093 },
  { "code": "MEL1", "name": "Melbourne",    "region": "apac", "latitude": -37.8136, "longitude": 144.9631 }
]
